{
  "features": [
    {
      "geometry": { "coordinates": [-8.71752, 42.23323], "type": "Point" },
      "type": "Feature",
      "properties": {
        "barrio": "VIGO",
        "codigo_postal": "36204",
        "numero": 16,
        "web": "www.once.es",
        "calle": "AVDA GRAN VIA",
        "parroquia": "VIGO",
        "lon": -8.71752,
        "id": 177,
        "telefono": "986227208",
        "nombre": "Biblioteca Braille de la ONCE",
        "lat": 42.23323
      }
    },
    {
      "geometry": { "coordinates": [-8.70013, 42.22753], "type": "Point" },
      "type": "Feature",
      "properties": {
        "barrio": "BAGUNDA",
        "codigo_postal": "36205",
        "numero": 21,
        "web": null,
        "calle": "AVDA E. MTNEZ GARRIDO- ALCALDE",
        "parroquia": "LAVADORES",
        "lon": -8.70013,
        "id": 5362,
        "telefono": "986267759",
        "nombre": "Biblioteca Municipal Xosé Neira Vilas",
        "lat": 42.22753
      }
    },
    {
      "geometry": { "coordinates": [-8.68357, 42.16929], "type": "Point" },
      "type": "Feature",
      "properties": {
        "barrio": "MARCOSENDE",
        "codigo_postal": "36310",
        "numero": 0,
        "web": "http://www.biblioteca.uvigo.es/",
        "calle": "CTRA MARCOSENDE",
        "parroquia": "ZAMANS",
        "lon": -8.68357,
        "id": 187,
        "telefono": "986813825",
        "nombre": "Biblioteca Central Campus de Vigo",
        "lat": 42.16929
      }
    },
    {
      "geometry": { "coordinates": [-8.81311, 42.18387], "type": "Point" },
      "type": "Feature",
      "properties": {
        "barrio": "CABO ESTAI",
        "codigo_postal": "36390",
        "numero": 50,
        "web": "http://www.ieo.es/es/web/vigo/biblioteca",
        "calle": "SBIDA RADIO FARO",
        "parroquia": "OIA",
        "lon": -8.81311,
        "id": 191,
        "telefono": "986492111",
        "nombre": "Biblioteca Centro Oceanográfico Vigo",
        "lat": 42.18387
      }
    },
    {
      "geometry": { "coordinates": [-8.67766, 42.16919], "type": "Point" },
      "type": "Feature",
      "properties": {
        "barrio": "MARCOSENDE",
        "codigo_postal": "36310",
        "numero": 0,
        "web": "http://www.biblioteca.uvigo.es/",
        "calle": "CTRA MARCOSENDE",
        "parroquia": "ZAMANS",
        "lon": -8.67766,
        "id": 192,
        "telefono": "986812268",
        "nombre": "Biblioteca de Filoloxía e Traducción",
        "lat": 42.16919
      }
    },
    {
      "geometry": { "coordinates": [-8.68508, 42.16769], "type": "Point" },
      "type": "Feature",
      "properties": {
        "barrio": "MARCOSENDE",
        "codigo_postal": "36310",
        "numero": 0,
        "web": "http://www.biblioteca.uvigo.es/",
        "calle": "CTRA MARCOSENDE",
        "parroquia": "ZAMANS",
        "lon": -8.68508,
        "id": 193,
        "telefono": "986812658",
        "nombre": "Biblioteca de Ciencias",
        "lat": 42.16769
      }
    },
    {
      "geometry": { "coordinates": [-8.68082, 42.17017], "type": "Point" },
      "type": "Feature",
      "properties": {
        "barrio": "MARCOSENDE",
        "codigo_postal": "36310",
        "numero": 0,
        "web": "http://www.biblioteca.uvigo.es/",
        "calle": "CTRA MARCOSENDE",
        "parroquia": "ZAMANS",
        "lon": -8.68082,
        "id": 194,
        "telefono": "986812408",
        "nombre": "Biblioteca de Ciencias Económicas e Empresariais",
        "lat": 42.17017
      }
    },
    {
      "geometry": { "coordinates": [-8.68124, 42.16885], "type": "Point" },
      "type": "Feature",
      "properties": {
        "barrio": "MARCOSENDE",
        "codigo_postal": "36310",
        "numero": 0,
        "web": "http://www.biblioteca.uvigo.es/",
        "calle": "CTRA MARCOSENDE",
        "parroquia": "ZAMANS",
        "lon": -8.68124,
        "id": 195,
        "telefono": "986812682",
        "nombre": "Biblioteca CC. Xurídicas e do Traballo",
        "lat": 42.16885
      }
    },
    {
      "geometry": { "coordinates": [-8.68956, 42.16854], "type": "Point" },
      "type": "Feature",
      "properties": {
        "barrio": "MARCOSENDE",
        "codigo_postal": "36310",
        "numero": 0,
        "web": "http://www.biblioteca.uvigo.es/",
        "calle": "RUA MAXWELL",
        "parroquia": "ZAMANS",
        "lon": -8.68956,
        "id": 196,
        "telefono": "986812208",
        "nombre": "Biblioteca de Industriais e Minas",
        "lat": 42.16854
      }
    },
    {
      "geometry": { "coordinates": [-8.68844, 42.16981], "type": "Point" },
      "type": "Feature",
      "properties": {
        "barrio": "MARCOSENDE",
        "codigo_postal": "36310",
        "numero": 0,
        "web": "http://www.biblioteca.uvigo.es/",
        "calle": "CTRA MARCOSENDE",
        "parroquia": "ZAMANS",
        "lon": -8.68844,
        "id": 197,
        "telefono": "986812105",
        "nombre": "Biblioteca de Telecomunicación",
        "lat": 42.16981
      }
    },
    {
      "geometry": { "coordinates": [-8.73461, 42.22722], "type": "Point" },
      "type": "Feature",
      "properties": {
        "barrio": "VIGO",
        "codigo_postal": "36208",
        "numero": 86,
        "web": "http://www.biblioteca.uvigo.es/",
        "calle": "RUA CONDE TORRECEDEIRA",
        "parroquia": "VIGO",
        "lon": -8.73461,
        "id": 198,
        "telefono": "986813739",
        "nombre": "Biblioteca da Escola de Enxeñaría Industrial",
        "lat": 42.22722
      }
    },
    {
      "geometry": { "coordinates": [-8.72568, 42.23836], "type": "Point" },
      "type": "Feature",
      "properties": {
        "barrio": "VIGO",
        "codigo_postal": "36202",
        "numero": 2,
        "web": "http://www.vigocultura.org",
        "calle": "PRAZA PRINCESA",
        "parroquia": "VIGO",
        "lon": -8.72568,
        "id": 206,
        "telefono": "986226459",
        "nombre": "Biblioteca Fundación Penzol",
        "lat": 42.23836
      }
    },
    {
      "geometry": { "coordinates": [-8.72339, 42.23772], "type": "Point" },
      "type": "Feature",
      "properties": {
        "barrio": "VIGO",
        "codigo_postal": "36202",
        "numero": 13,
        "web": null,
        "calle": "RUA POLICARPO SANZ",
        "parroquia": "VIGO",
        "lon": -8.72339,
        "id": 211,
        "telefono": "886116933",
        "nombre": "Biblioteca Teatro Afundación Vigo",
        "lat": 42.23772
      }
    },
    {
      "geometry": { "coordinates": [-8.72543, 42.23877], "type": "Point" },
      "type": "Feature",
      "properties": {
        "barrio": "VIGO",
        "codigo_postal": "36202",
        "numero": 6,
        "web": "http://bibliotecas.xunta.gal/vigo/gl",
        "calle": "RUA JOAQUIN YAÑEZ",
        "parroquia": "VIGO",
        "lon": -8.72543,
        "id": 218,
        "telefono": "886120440",
        "nombre": "Biblioteca Pública de Vigo Juan Compañel",
        "lat": 42.23877
      }
    },
    {
      "geometry": { "coordinates": [-8.71959, 42.23761], "type": "Point" },
      "type": "Feature",
      "properties": {
        "barrio": "VIGO",
        "codigo_postal": "36201",
        "numero": 5,
        "web": "http://bibliotecadaemao.blogspot.com/",
        "calle": "AVDA GARCIA BARBON",
        "parroquia": "VIGO",
        "lon": -8.71959,
        "id": 5401,
        "telefono": "986228088",
        "nombre": "Biblioteca da Escola Municipal de Artes e Oficios (EMAO)",
        "lat": 42.23761
      }
    },
    {
      "geometry": { "coordinates": [-8.7211, 42.23606], "type": "Point" },
      "type": "Feature",
      "properties": {
        "barrio": "VIGO",
        "codigo_postal": "36202",
        "numero": 54,
        "web": "www.marcovigo.com",
        "calle": "RUA PRINCIPE",
        "parroquia": "VIGO",
        "lon": -8.7211,
        "id": 4639,
        "telefono": "986113900",
        "nombre": "Biblioteca Centro de Documentación MARCO",
        "lat": 42.23606
      }
    },
    {
      "geometry": { "coordinates": [-8.71876, 42.23655], "type": "Point" },
      "type": "Feature",
      "properties": {
        "barrio": "VIGO",
        "codigo_postal": "36201",
        "numero": 18,
        "web": "http://www.camarapvv.com/",
        "calle": "RUA REPUBLICA ARGENTINA",
        "parroquia": "VIGO",
        "lon": -8.71876,
        "id": 4640,
        "telefono": "986446343",
        "nombre": "Biblioteca Cámara de Comercio de Vigo",
        "lat": 42.23655
      }
    },
    {
      "geometry": { "coordinates": [-8.68537, 42.16749], "type": "Point" },
      "type": "Feature",
      "properties": {
        "barrio": "MARCOSENDE",
        "codigo_postal": "36310",
        "numero": 0,
        "web": "http://uvigo.gal",
        "calle": "CTRA MARCOSENDE",
        "parroquia": "ZAMANS",
        "lon": -8.68537,
        "id": 4642,
        "telefono": "986812658",
        "nombre": "Biblioteca Facultade de Ciencias do Mar e Bioloxía",
        "lat": 42.16749
      }
    },
    {
      "geometry": { "coordinates": [-8.71628, 42.23664], "type": "Point" },
      "type": "Feature",
      "properties": {
        "barrio": "VIGO",
        "codigo_postal": "36201",
        "numero": 30,
        "web": null,
        "calle": "AVDA GARCIA BARBON",
        "parroquia": "VIGO",
        "lon": -8.71628,
        "id": 4643,
        "telefono": "986439459",
        "nombre": "Biblioteca Grupo de Estudios sobre a Condición da Muller Alecrin",
        "lat": 42.23664
      }
    },
    {
      "geometry": { "coordinates": [-8.7519, 42.22617], "type": "Point" },
      "type": "Feature",
      "properties": {
        "barrio": "VIGO",
        "codigo_postal": "36208",
        "numero": 6,
        "web": "http://www.iim.csic.es/index.php/biblioteca",
        "calle": "RUA EDUARDO CABELLO",
        "parroquia": "VIGO",
        "lon": -8.7519,
        "id": 4644,
        "telefono": "986214454",
        "nombre": "Biblioteca do Instituto de Investigacións Mariñas",
        "lat": 42.22617
      }
    },
    {
      "geometry": { "coordinates": [-8.73121, 42.21793], "type": "Point" },
      "type": "Feature",
      "properties": {
        "barrio": "FREIXEIRO",
        "codigo_postal": "36210",
        "numero": 22,
        "web": "www.museoliste.org",
        "calle": "RUA PASTORA",
        "parroquia": "FREIXEIRO",
        "lon": -8.73121,
        "id": 4645,
        "telefono": "986244698",
        "nombre": "Biblioteca Museo Etnográfico Fundación Liste",
        "lat": 42.21793
      }
    },
    {
      "geometry": { "coordinates": [-8.75692, 42.20948], "type": "Point" },
      "type": "Feature",
      "properties": {
        "barrio": "XUNCAL",
        "codigo_postal": "36212",
        "numero": 26,
        "web": null,
        "calle": "RUA TEIXUGUEIRAS (AS)",
        "parroquia": "NAVIA",
        "lon": -8.75692,
        "id": 5406,
        "telefono": null,
        "nombre": "Biblioteca de Navia",
        "lat": 42.20948
      }
    },
    {
      "geometry": { "coordinates": [-8.72568, 42.23836], "type": "Point" },
      "type": "Feature",
      "properties": {
        "barrio": "VIGO",
        "codigo_postal": "36202",
        "numero": 2,
        "web": null,
        "calle": "PRAZA PRINCESA",
        "parroquia": "VIGO",
        "lon": -8.72568,
        "id": 5113,
        "telefono": "986226459",
        "nombre": "Biblioteca Francisco Fernández del Riego",
        "lat": 42.23836
      }
    },
    {
      "geometry": { "coordinates": [-8.72568, 42.23836], "type": "Point" },
      "type": "Feature",
      "properties": {
        "barrio": "VIGO",
        "codigo_postal": "36202",
        "numero": 2,
        "web": null,
        "calle": "PRAZA PRINCESA",
        "parroquia": "VIGO",
        "lon": -8.72568,
        "id": 5114,
        "telefono": "986226459",
        "nombre": "Gabinete Ramón Piñeiro",
        "lat": 42.23836
      }
    }
  ],
  "type": "FeatureCollection"
}
